City_ID,City,Lat,Lng,Max Temp,Humidity,Cloudiness,Wind Speed,Country,Date
0,port-aux-francais,-49.35,70.2167,6.76,99,100,7.88,TF,1707273361
1,mokhsogollokh,61.4681,128.9203,-24.05,95,100,0.65,RU,1707273361
2,saipan,15.1355,145.701,29.39,54,75,5.66,MP,1707273361
3,iwanai,42.9744,140.5089,0.08,66,99,3.01,JP,1707273361
4,niafunke,15.9322,-3.9906,19.25,14,0,5.12,ML,1707273361
5,grytviken,-54.2811,-36.5092,8.86,58,19,2.37,GS,1707273361
6,las khorey,11.1595,48.1967,24.45,80,5,3.03,SO,1707273361
7,tacna,-18.0056,-70.2483,22.11,73,0,3.09,PE,1707273361
8,tarauaca,-8.1614,-70.7656,22.84,99,21,1.03,BR,1707273361
9,surskoye,54.4821,46.7214,-16.88,90,13,5.05,RU,1707273362
10,bilibino,68.0546,166.4372,-33.7,100,100,0.77,RU,1707273151
11,puerto natales,-51.7236,-72.4875,11.13,78,80,3.04,CL,1707273307
12,guaraniacu,-25.1008,-52.8781,18.02,92,84,0.61,BR,1707273362
13,albany,42.6001,-73.9662,-1.32,70,11,0.45,US,1707273362
14,georgetown,5.4112,100.3354,30.96,72,20,3.6,MY,1707273362
15,stanley,54.868,-1.6985,0.99,85,0,1.54,GB,1707273362
16,zest'aponi,42.11,43.0525,8.06,89,98,2.89,GE,1707273362
17,molde,62.7375,7.1591,-9.09,92,20,3.09,NO,1707273362
18,nelson bay,-32.7167,152.15,20.06,98,100,3.58,AU,1707273363
19,udachny,66.4167,112.4,-29.2,74,98,1.89,RU,1707273306
20,wynyard,-41.0,145.7167,22.18,37,2,3.27,AU,1707273363
21,kingston,17.997,-76.7936,24.53,69,20,4.63,JM,1707273153
22,tianpeng,30.9866,103.9393,6.26,83,100,1.32,CN,1707273363
23,badger,64.8,-147.5333,-15.36,82,75,2.06,US,1707273363
24,longyearbyen,78.2186,15.6401,-9.09,62,75,8.23,SJ,1707273363
25,college,64.8569,-147.8028,-15.31,79,75,2.06,US,1707273363
26,brokopondo,4.75,-55.1667,24.45,93,84,3.28,SR,1707273363
27,prokhladnyy,43.7574,44.0297,6.43,79,100,2.77,RU,1707273364
28,hamilton,39.1834,-84.5333,4.43,76,0,3.6,US,1707273364
29,keflavik,64.0049,-22.5624,-1.05,80,75,10.8,IS,1707273364
30,antsiranana,-12.2787,49.2917,23.91,92,100,0.45,MG,1707273364
31,bethel,41.3712,-73.414,0.27,70,0,1.54,US,1707273364
32,puerto deseado,-47.7503,-65.8938,18.52,55,100,11.21,AR,1707273364
33,boguchany,58.3814,97.4531,-12.86,99,94,1.79,RU,1707273364
34,avarua,-21.2078,-159.775,29.03,79,75,4.63,CK,1707273364
35,yellowknife,62.456,-114.3525,-17.47,93,100,5.66,CA,1707273365
36,atafu village,-8.5421,-172.5159,29.01,79,93,10.39,TK,1707273347
37,quellon,-43.1167,-73.6167,11.13,71,34,2.75,CL,1707273202
38,anadyr,64.75,177.4833,-22.72,83,75,8.0,RU,1707273366
39,san julian,21.0167,-102.1667,15.71,16,0,2.33,MX,1707273366
40,mengcheng chengguanzhen,33.2661,116.566,1.21,81,60,1.51,CN,1707273366
41,dwarka,22.2394,68.9678,22.49,71,86,4.7,IN,1707273366
42,margaret river,-33.95,115.0667,26.88,36,0,3.51,AU,1707273366
43,puerto baquerizo moreno,-0.9,-89.6,25.5,86,31,5.04,EC,1707273367
44,egilsstadir,65.2653,-14.3948,-7.05,93,75,1.54,IS,1707273367
45,chhutmalpur,30.0314,77.7525,7.62,62,9,2.15,IN,1707273367
46,adamstown,-25.066,-130.1015,25.01,85,94,5.16,PN,1707273367
47,waitangi,-43.9535,-176.5597,19.9,88,100,1.79,NZ,1707273367
48,port blair,11.6667,92.75,23.02,94,32,1.03,IN,1707273302
49,lorengau,-2.0226,147.2712,27.47,84,100,6.32,PG,1707273367
50,iqaluit,63.7506,-68.5145,-22.15,54,20,2.06,CA,1707273367
51,kodiak,57.79,-152.4072,2.73,70,0,5.14,US,1707273367
52,lubango,-14.9172,13.4925,15.92,100,100,2.06,AO,1707273367
53,oriximina,-1.7656,-55.8661,28.24,62,38,3.3,BR,1707273367
54,nova sintra,14.8667,-24.7167,20.92,72,0,5.98,CV,1707273367
55,dudinka,69.4058,86.1778,-19.62,87,100,3.58,RU,1707273368
56,soto la marina,23.7667,-98.2167,13.37,82,0,2.15,MX,1707273368
57,lebu,-37.6167,-73.65,17.6,97,100,0.67,CL,1707273368
58,akureyri,65.6835,-18.0878,-2.04,74,100,2.06,IS,1707273368
59,ushuaia,-54.8,-68.3,14.81,44,0,3.6,AR,1707273368
60,turpan,42.9333,89.1667,2.85,43,16,0.13,CN,1707273368
61,hanzhong,33.0728,107.0303,5.68,57,100,1.59,CN,1707273368
62,west island,-12.1568,96.8225,29.99,70,40,4.12,CC,1707273369
63,aasiaat,68.7098,-52.8699,-8.8,80,100,7.17,GL,1707273369
64,blackmans bay,-43.0167,147.3167,21.96,42,35,1.34,AU,1707273339
65,west end,26.6833,-78.9667,16.99,84,99,12.57,BS,1707273074
66,noumea,-22.2763,166.4572,30.99,99,100,8.3,NC,1707273074
67,baijiantan,45.6333,85.1833,-14.13,95,84,0.94,CN,1707273369
68,leamington,42.0549,-82.6062,0.93,40,73,1.34,CA,1707273369
69,nemuro,43.3236,145.575,-5.31,65,65,2.61,JP,1707273370
70,dawson creek,55.7666,-120.2362,-6.2,79,0,1.03,CA,1707273370
71,srandakan,-7.9386,110.2506,28.48,70,84,3.68,ID,1707273370
72,kapuskasing,49.4169,-82.4331,2.05,93,75,3.6,CA,1707273370
73,papao,-17.75,-149.55,27.82,88,100,11.32,PF,1707273370
74,edinburgh of the seven seas,-37.0676,-12.3116,16.77,62,96,1.23,SH,1707273296
75,vargashi,55.3556,65.8467,-1.61,85,100,8.92,RU,1707273370
76,ocean shores,46.9737,-124.1563,8.0,77,100,4.12,US,1707273370
77,markala,13.7021,-6.0659,21.4,14,4,4.22,ML,1707273370
78,weno,7.4515,151.8468,29.97,66,40,6.17,FM,1707273371
79,olonkinbyen,70.9221,-8.7187,-3.81,91,91,8.59,SJ,1707273371
80,sandviken,60.6167,16.7667,-6.35,94,100,2.02,SE,1707273371
81,punta arenas,-53.15,-70.9167,12.06,71,75,3.09,CL,1707273308
82,east london,-33.0153,27.9116,23.09,78,100,9.28,ZA,1707273371
83,tolanaro,-25.0319,46.9987,23.04,94,40,9.77,MG,1707273371
84,bredasdorp,-34.5322,20.0403,19.03,69,0,4.79,ZA,1707273371
85,hawaiian paradise park,19.5933,-154.9731,23.26,81,100,2.06,US,1707273371
86,alice springs,-23.7,133.8833,30.12,44,75,7.72,AU,1707273371
87,renfrew,55.872,-4.3925,2.4,92,100,1.03,GB,1707273372
88,chonchi,-42.6128,-73.8092,14.56,70,54,3.15,CL,1707273102
89,ciudad lazaro cardenas,17.9583,-102.2,24.69,78,12,1.24,MX,1707273372
90,la passe,45.5549,-0.8967,10.55,92,98,5.72,FR,1707273372
91,bereket,39.2446,55.5154,6.01,53,92,1.8,TM,1707273372
92,howard springs,-12.497,131.047,33.23,77,18,4.14,AU,1707273372
93,rongelap,11.1635,166.8941,26.76,81,95,6.34,MH,1707273372
94,port moresby,-9.4431,147.1797,30.68,70,75,5.14,PG,1707273076
95,celestun,20.8667,-90.4,19.84,63,40,4.2,MX,1707273372
96,mata-utu,-13.2816,-176.1745,28.81,78,97,6.33,WF,1707273373
97,yeppoon,-23.1333,150.7333,31.88,62,10,7.38,AU,1707273373
98,port lincoln,-34.7333,135.8667,20.17,61,23,4.64,AU,1707273373
99,borovskoy,53.8,64.15,-1.24,95,100,8.39,KZ,1707273373
100,roma,43.2128,-75.4557,-0.71,77,48,0.45,US,1707273373
101,ulladulla,-35.35,150.4667,20.25,65,82,5.09,AU,1707273374
102,ribeira grande,38.5167,-28.7,17.65,91,87,9.39,PT,1707273374
103,pacho,5.1328,-74.1598,17.76,95,98,1.6,CO,1707273374
104,talnakh,69.4865,88.3972,-19.27,83,100,3.01,RU,1707273374
105,whitehorse,60.7161,-135.0538,-14.39,82,75,2.57,CA,1707273374
106,wailua homesteads,22.0669,-159.378,26.24,66,75,8.75,US,1707273374
107,carnarvon,-24.8667,113.6333,33.82,40,4,6.39,AU,1707273374
108,praia da vitoria,38.7333,-27.0667,17.14,88,20,6.05,PT,1707273374
109,san antonio de pale,-1.4014,5.6325,27.86,75,65,2.84,GQ,1707273375
110,ardakan,32.31,54.0175,6.07,34,0,1.1,IR,1707273375
111,mahina,-17.5065,-149.489,27.87,83,75,5.66,PF,1707273375
112,tidjikja,18.5564,-11.4271,20.38,11,0,7.59,MR,1707273375
113,tofol,5.3248,163.0078,30.88,70,75,7.2,FM,1707273375
114,zeya,53.75,127.2667,-16.4,85,100,0.79,RU,1707273376
115,muroto-misakicho,33.2833,134.15,10.57,57,13,1.41,JP,1707273376
116,mount gambier,-37.8333,140.7667,21.96,42,66,3.63,AU,1707273376
117,ilulissat,69.2167,-51.1,-6.99,49,100,11.32,GL,1707273321
118,tostado,-29.232,-61.7692,29.99,56,40,3.89,AR,1707273376
119,aioun,16.6614,-9.6149,19.99,11,0,6.04,MR,1707273377
120,susuman,62.7833,148.1667,-29.45,100,99,0.45,RU,1707273316
121,ubinskoye,55.3068,79.6802,-9.09,84,100,5.0,RU,1707273377
122,silverton,45.0051,-122.7832,8.71,92,83,1.63,US,1707273377
123,jamestown,42.097,-79.2353,-1.2,85,0,3.09,US,1707273368
124,papatowai,-46.5619,169.4708,17.11,53,16,4.37,NZ,1707273377
125,leticia,-4.2153,-69.9406,24.03,100,40,0.0,CO,1707273377
126,tralee,52.2704,-9.7026,3.68,86,99,2.13,IE,1707273377
127,tadjourah,12.0,42.5,22.57,73,51,2.99,DJ,1707273377
128,kosh-agach,50.0,88.6667,-26.5,93,66,1.34,RU,1707273377
129,gazojak,41.1875,61.4036,3.98,59,100,8.14,TM,1707273377
130,uyar,55.81,94.3153,-16.08,91,48,1.08,RU,1707273377
131,lysekil,58.2743,11.4358,-2.16,85,100,5.12,SE,1707273378
132,talara,-4.5772,-81.2719,26.42,83,40,5.14,PE,1707273378
133,sant lluis,39.8526,4.2594,11.22,100,100,1.54,ES,1707273378
134,cabo san lucas,22.8909,-109.9124,23.61,77,75,5.14,MX,1707273284
135,taro,-8.3862,115.28,26.03,59,78,1.76,ID,1707273378
136,batouri,4.4333,14.3667,21.04,36,97,0.47,CM,1707273378
137,nuuk,64.1835,-51.7216,-6.66,73,75,15.43,GL,1707273378
138,margate,51.3813,1.3862,6.84,94,100,2.68,GB,1707273378
139,ancud,-41.8697,-73.8203,13.02,71,98,6.24,CL,1707273378
140,thompson,55.7435,-97.8558,-17.91,71,100,3.6,CA,1707273379
141,kirensk,57.7853,108.1119,-11.69,97,100,1.79,RU,1707273379
142,llaillay,-32.85,-70.9667,25.14,64,0,0.51,CL,1707273379
143,cafayate,-26.073,-65.9761,21.94,69,97,0.87,AR,1707273379
144,fatehabad,29.5167,75.45,10.17,46,5,2.4,IN,1707273379
145,pisco,-13.7,-76.2167,25.03,78,0,4.63,PE,1707273379
146,port elizabeth,-33.918,25.5701,22.28,87,0,6.17,ZA,1707273379
147,polyarnyy,69.1989,33.4478,-19.8,99,99,3.97,RU,1707273380
148,alaghsas,17.0187,8.0168,15.13,25,38,5.15,NE,1707273327
149,whakatane,-37.9585,176.9854,25.84,80,3,2.24,NZ,1707273380
150,thayetmyo,19.3167,95.1833,28.79,32,0,0.65,MM,1707273380
151,utrik,11.2278,169.8474,26.74,80,87,6.62,MH,1707273338
152,san isidro,-12.1167,-77.05,27.79,63,0,8.23,PE,1707273380
153,levuka,50.1834,-105.4011,-1.16,84,100,4.37,CA,1707273380
154,capaci,38.1711,13.2393,14.25,76,0,0.51,IT,1707273380
155,hermanus,-34.4187,19.2345,19.33,84,2,5.54,ZA,1707273309
156,namibe,-15.1961,12.1522,24.85,82,100,2.36,AO,1707273351
157,cabedelo,-6.9811,-34.8339,28.37,79,14,3.86,BR,1707273366
158,glace bay,46.1969,-59.957,-0.12,86,40,6.17,CA,1707273212
159,la'ie,21.6477,-157.9253,26.98,72,12,10.08,US,1707273380
160,yuba city,39.1405,-121.6169,13.21,64,0,0.0,US,1707273221
161,buston,40.2342,69.6948,4.1,65,75,1.0,TJ,1707273381
162,guerrero negro,27.9769,-114.0611,15.58,75,24,5.06,MX,1707273381
163,maputo,-25.9653,32.5892,23.82,88,40,1.03,MZ,1707273381
164,kupino,54.3663,77.2981,-7.79,83,100,6.26,RU,1707273381
165,dompu,-8.5356,118.4622,32.88,51,61,1.5,ID,1707273381
166,richards bay,-28.783,32.0377,20.91,88,47,4.05,ZA,1707273329
167,san giorgio del sannio,41.0696,14.8522,8.71,91,100,2.0,IT,1707273381
168,valparaiso,-33.0393,-71.6273,17.8,88,20,1.54,CL,1707273123
169,wuhai,39.6647,106.8122,-5.45,56,100,0.63,CN,1707273382
170,bolgatanga,10.7856,-0.8514,24.22,16,99,3.64,GH,1707273382
171,kailua-kona,19.6406,-155.9956,26.98,60,100,5.14,US,1707273239
172,ayaviri,-14.8864,-70.5889,3.74,99,100,0.67,PE,1707273382
173,port mathurin,-19.6833,63.4167,26.94,70,32,7.02,MU,1707273382
174,san fernando,15.0286,120.6898,28.85,44,8,3.39,PH,1707273382
175,sitka,57.0531,-135.33,2.94,87,40,0.0,US,1707273382
176,haiku-pauwela,20.9219,-156.3051,25.01,65,20,10.29,US,1707273382
177,san luis de la loma,17.2706,-100.8939,24.36,82,16,0.34,MX,1707273382
178,san matias,-16.3667,-58.4,24.67,84,100,1.9,BO,1707273382
179,atamyrat,37.8357,65.2106,9.41,36,99,6.57,TM,1707273383
180,liepaja,56.5419,21.0367,2.99,81,75,11.83,LV,1707273383
181,tiksi,71.6872,128.8694,-27.84,99,97,2.85,RU,1707273383
182,touros,-5.1989,-35.4608,26.85,80,100,4.94,BR,1707273283
183,sao jose da coroa grande,-8.8978,-35.1478,26.31,82,99,2.55,BR,1707273384
184,solleftea,63.1667,17.2667,-11.08,98,95,0.76,SE,1707273384
185,puerto ayora,-0.7393,-90.3518,25.08,88,67,3.68,EC,1707273385
186,askoy,60.4092,5.226,-2.35,93,40,1.03,NO,1707273206
187,fort st. john,56.2499,-120.8529,-7.06,79,75,2.57,CA,1707273153
188,lucapa,-8.4192,20.7447,17.24,98,94,0.89,AO,1707273385
189,dan sadau,11.2962,6.4952,19.91,24,17,5.1,NG,1707273385
190,cheongsong gun,36.4335,129.057,3.82,60,60,1.22,KR,1707273385
191,tabanan,-8.5413,115.1252,29.25,65,53,2.97,ID,1707273385
192,sumbe,-11.2061,13.8437,25.89,81,100,3.73,AO,1707273385
193,petropavlovsk-kamchatsky,53.0452,158.6483,-6.67,76,0,1.79,RU,1707273385
194,capri,40.5507,14.2426,12.94,84,100,5.75,IT,1707273192
195,springbok,-29.6643,17.8865,14.15,80,42,2.56,ZA,1707273385
196,trairi,-3.2778,-39.2689,26.95,83,78,4.44,BR,1707273359
197,beledweyne,4.7358,45.2036,25.61,70,93,4.61,SO,1707273386
198,qaqortoq,60.7167,-46.0333,-13.85,65,2,4.93,GL,1707273336
199,el bauga,18.262,33.9081,13.39,41,100,5.15,SD,1707273386
200,humahuaca,-23.2054,-65.3505,14.14,76,73,1.77,AR,1707273386
201,bethanie,-26.4833,17.15,25.3,35,100,1.4,NA,1707273239
202,galliano,29.4422,-90.2992,13.33,70,0,2.97,US,1707273386
203,kerikeri,-35.2268,173.9474,23.87,61,18,3.88,NZ,1707273386
204,mossoro,-5.1875,-37.3442,26.58,77,99,4.64,BR,1707273386
205,oppdal,62.5943,9.6912,-18.6,91,44,3.2,NO,1707273386
206,roxas,11.5853,122.7511,26.19,71,10,4.08,PH,1707273386
207,coyhaique,-45.5752,-72.0662,9.34,66,75,2.06,CL,1707273386
208,igarka,67.4667,86.5833,-15.75,97,97,3.03,RU,1707273387
209,madisonville,37.3281,-87.4989,3.45,94,2,1.49,US,1707273387
210,tura,25.5198,90.2201,17.83,68,0,1.12,IN,1707273387
211,nadi,-17.8,177.4167,29.0,74,75,5.66,FJ,1707273301
212,afaahiti,-17.75,-149.2833,26.93,89,100,10.63,PF,1707273329
213,macapa,0.0389,-51.0664,26.99,89,40,2.57,BR,1707273387
214,ust-nera,64.5667,143.2,-28.59,93,65,0.68,RU,1707273387
215,palmer,42.1584,-72.3287,0.05,78,0,0.0,US,1707273387
216,andong,36.5656,128.725,4.16,56,39,1.1,KR,1707273387
217,port isabel,26.0734,-97.2086,16.68,86,0,2.57,US,1707273387
218,ilhabela,-23.7781,-45.3581,24.02,91,100,1.7,BR,1707273388
219,gadzhiyevo,69.2551,33.3362,-20.99,100,99,3.67,RU,1707273388
220,ciudad bolivar,8.1222,-63.5497,29.56,60,78,3.41,VE,1707273388
221,isla mujeres,21.2311,-86.731,17.03,68,23,6.42,MX,1707273388
222,moriki,12.8741,6.4875,17.98,20,57,6.02,NG,1707273388
223,terbanggi besar,-4.8667,105.2333,28.58,74,46,2.78,ID,1707273388
224,selfoss,63.9331,-20.9971,-8.73,89,34,3.9,IS,1707273388
225,fort bragg,35.139,-79.006,5.75,49,0,5.14,US,1707273389
226,djamaa,33.5339,5.9931,12.26,39,9,4.62,DZ,1707273389
227,labrador city,52.9463,-66.9114,-14.05,70,75,3.09,CA,1707273389
228,chauk,20.8833,94.8167,25.73,38,0,3.42,MM,1707273389
229,minas de marcona,-15.2119,-75.1103,19.74,90,98,4.57,PE,1707273389
230,novozavedennoye,44.2628,43.6381,8.61,75,100,5.31,RU,1707273389
231,bolo,13.7899,120.9817,28.9,59,4,5.02,PH,1707273389
232,saldanha,-33.0117,17.9442,17.03,94,0,3.64,ZA,1707273307
233,ascension,30.2169,-90.9001,15.0,42,0,2.57,US,1707273389
234,texistepec,17.8833,-94.7833,20.0,79,0,2.21,MX,1707273389
235,weyburn,49.6668,-103.8511,-1.88,93,100,4.63,CA,1707273260
236,peniche,39.3558,-9.3811,15.62,96,99,3.98,PT,1707273390
237,klyuchi,52.2667,79.1667,-7.77,80,93,6.47,RU,1707273390
238,isafjordur,66.0755,-23.124,-3.24,92,100,5.8,IS,1707273390
239,kargasok,59.0556,80.8572,-6.69,97,100,3.13,RU,1707273390
240,monroeville,40.4212,-79.7881,1.4,60,0,1.34,US,1707273197
241,vilyuchinsk,52.9306,158.4028,-5.85,78,100,0.72,RU,1707273390
242,urangan,-25.3,152.9,29.2,66,7,7.12,AU,1707273390
243,vorgashor,67.5833,63.95,-26.57,98,67,2.44,RU,1707273390
244,karratha,-20.7377,116.8463,34.03,37,100,4.93,AU,1707273159
245,hirara,24.8,125.2833,22.15,73,75,5.66,JP,1707273391
246,santa maria,-29.6842,-53.8069,24.61,88,0,5.14,BR,1707273391
247,mufulira,-12.5498,28.2407,16.42,97,84,1.25,ZM,1707273391
248,cozumel,20.5083,-86.9458,21.71,79,20,7.72,MX,1707273391
249,rostov,57.1914,39.4139,-28.09,100,100,1.65,RU,1707273391
250,mutuali,-14.8706,37.0044,21.16,96,100,0.21,MZ,1707273391
251,colonia,50.9333,6.95,11.65,82,100,6.69,DE,1707273380
252,enewetak,11.3474,162.3373,26.6,82,99,7.23,MH,1707273391
253,uturoa,-16.7333,-151.4333,28.19,87,100,14.29,PF,1707273392
254,port saint john's,-31.6229,29.5448,22.63,83,78,1.75,ZA,1707273392
255,belmonte,-15.8631,-38.8828,25.69,85,81,1.75,BR,1707273392
256,kone,-21.0595,164.8658,29.85,66,100,3.87,NC,1707273392
257,christchurch,-43.5333,172.6333,26.29,60,68,7.72,NZ,1707273174
258,suva,-18.1416,178.4415,29.71,70,75,3.6,FJ,1707273392
259,puerto aysen,-45.4,-72.7,8.31,96,77,3.93,CL,1707273392
260,sombrerete,23.6333,-103.65,13.5,17,12,3.21,MX,1707273392
261,nadym,65.5333,72.5167,-15.69,98,96,3.89,RU,1707273392
262,aljezur,37.3191,-8.8033,14.6,95,100,2.16,PT,1707273392
263,maceio,-9.6658,-35.7353,26.69,94,40,1.54,BR,1707273365
264,al kharijah,25.4514,30.5464,10.77,64,2,3.62,EG,1707273393
265,crane,31.3974,-102.3501,13.82,48,100,10.17,US,1707273393
266,dehui,44.5333,125.7,-11.51,79,6,2.34,CN,1707273393
267,ola,59.5833,151.2833,-16.59,79,97,3.15,RU,1707273393
268,zyryanovsk,49.7386,84.2719,-19.91,97,85,0.8,KZ,1707273393
269,minot air force base,48.4209,-101.3391,1.1,90,100,3.09,US,1707273393
270,port alfred,-33.5906,26.891,21.77,91,100,3.13,ZA,1707273393
271,gundlupet,11.8,76.6833,22.08,53,4,1.41,IN,1707273393
272,saint-francois,46.4154,3.9054,7.03,83,100,2.57,FR,1707273249
273,yuzhno-kurilsk,44.0306,145.8556,-5.9,63,18,2.87,RU,1707273394
274,tazovsky,67.4667,78.7,-20.51,100,94,2.86,RU,1707273394
275,katsuren-haebaru,26.3369,127.8719,21.43,72,75,2.57,JP,1707273394
276,salta,-24.7859,-65.4117,21.99,87,75,1.03,AR,1707273353
277,kavaratti,10.5669,72.642,27.99,72,32,3.89,IN,1707273194
278,tucurui,-3.7661,-49.6725,23.73,93,58,1.06,BR,1707273394
279,kirakira,-10.4544,161.9205,29.81,73,69,5.67,SB,1707273233
280,st. john's,47.5649,-52.7093,0.08,92,100,12.96,CA,1707273394
281,curup,-3.4667,102.5333,26.98,63,95,1.11,ID,1707273394
282,yong peng,2.0136,103.0659,29.62,66,100,1.98,MY,1707273394
283,vorkuta,67.5,64.0,-26.76,99,68,2.35,RU,1707273394
284,phalaborwa,-23.943,31.1411,24.6,82,0,1.38,ZA,1707273394
285,newman,37.3138,-121.0208,11.19,87,100,0.89,US,1707273395
286,baruun-urt,46.6806,113.2792,-19.55,90,9,3.75,MN,1707273395
287,bengkulu,-3.8004,102.2655,28.48,68,66,1.04,ID,1707273395
288,shimoda,34.6667,138.95,8.2,72,96,3.5,JP,1707273395
289,helong,42.5397,128.9972,-3.28,38,0,1.02,CN,1707273395
290,fortuna,40.5982,-124.1573,9.81,91,40,0.0,US,1707273396
291,douentza,14.9951,-2.9517,20.12,11,28,2.48,ML,1707273396
292,flin flon,54.7682,-101.865,-14.9,96,86,3.0,CA,1707273396
293,tsiombe,-25.3,45.4833,22.35,92,5,1.53,MG,1707273397
294,mungwi,-10.1732,31.3694,16.65,91,100,1.05,ZM,1707273397
295,saudarkrokur,65.7461,-19.6394,-4.11,77,67,3.48,IS,1707273397
296,paramonga,-10.6667,-77.8333,24.72,82,35,3.41,PE,1707273397
297,emerald,-23.5333,148.1667,34.08,51,34,4.95,AU,1707273397
298,alasehir,38.3508,28.5172,10.27,63,23,1.65,TR,1707273397
299,rosetta,31.4044,30.4164,14.95,81,7,2.67,EG,1707273397
300,kiruna,67.8557,20.2251,-22.49,77,55,3.09,SE,1707273397
301,sovetskaya,44.7769,41.1722,6.79,70,100,5.64,RU,1707273397
302,daru,-9.0763,143.2092,31.18,63,100,1.77,PG,1707273397
303,kataba,13.9833,44.3833,14.82,77,61,0.72,YE,1707273397
304,zaozersk,69.4005,32.4476,-21.28,98,99,2.73,RU,1707273398
305,swift current,50.2834,-107.8014,-0.55,100,100,7.2,CA,1707273398
306,luena,-11.7833,19.9167,17.1,100,0,1.03,AO,1707273398
307,as sulayyil,20.4607,45.5779,18.14,61,79,5.35,SA,1707273398
308,morrope,-6.5417,-80.0111,26.06,66,41,6.22,PE,1707273399
309,howrah,22.5892,88.3103,19.0,88,40,4.12,IN,1707273399
310,n'zeto,-7.2312,12.8666,25.73,84,100,2.58,AO,1707273399
311,treinta y tres,-33.2333,-54.3833,19.81,83,0,4.33,UY,1707273399
312,novaya igirma,57.1334,103.9112,-11.08,93,100,2.15,RU,1707273399
313,piacabucu,-10.4056,-36.4344,25.94,85,94,2.88,BR,1707273399
314,brisas barra de suchiate,14.55,-92.2167,26.1,74,75,0.81,MX,1707273399
315,horta,38.5333,-28.6333,17.23,91,86,9.39,PT,1707273399
316,saint-philippe,-21.3585,55.7679,23.77,82,91,2.29,RE,1707273336
317,bon air,37.5249,-77.5578,-0.08,66,0,0.0,US,1707273399
318,nizhneangarsk,55.7833,109.55,-16.67,95,100,1.79,RU,1707273400
319,maun,-19.9833,23.4167,21.98,78,20,1.03,BW,1707273400
320,odienne,9.51,-7.5692,22.74,20,5,1.17,CI,1707273400
321,korla,41.7597,86.1469,-4.41,72,86,0.7,CN,1707273400
322,sao felix do xingu,-6.6447,-51.995,22.55,98,86,0.8,BR,1707273400
323,revda,56.801,59.9303,-3.68,95,100,5.15,RU,1707273400
324,al muwayh,22.4333,41.7583,12.9,25,39,5.5,SA,1707273400
325,holualoa,19.6228,-155.9522,24.91,60,100,5.14,US,1707273240
326,timimoun,29.2639,0.231,9.21,43,0,2.06,DZ,1707273400
327,buy,58.4786,41.53,-31.01,100,100,1.31,RU,1707273400
328,east ballina,-28.8667,153.5833,27.67,81,39,9.23,AU,1707273400
329,malinyi,-8.9333,36.1333,21.84,98,80,0.21,TZ,1707273401
330,harper,4.375,-7.7169,26.62,84,72,2.13,LR,1707273159
331,alamosa,37.4695,-105.87,0.99,93,100,2.06,US,1707273401
332,bull savanna,17.8868,-77.5902,20.13,75,30,5.22,JM,1707273401
333,novodvinsk,64.4165,40.8122,-25.12,99,79,0.38,RU,1707273401
334,el alto,-4.2714,-81.2147,24.81,79,81,7.06,PE,1707273401
335,tulun,54.5611,100.5792,-15.85,95,88,1.78,RU,1707273401
336,ostersund,63.1792,14.6357,-10.75,92,98,2.06,SE,1707273401
337,iskateley,67.6803,53.1512,-24.99,97,100,1.79,RU,1707273401
338,beyneu,45.3167,55.2,-0.9,75,51,10.44,KZ,1707273401
339,invercargill,-46.4,168.35,17.23,64,16,4.02,NZ,1707273401
340,geraldton,-28.7667,114.6,35.23,12,0,8.75,AU,1707273402
341,znamenskoye,57.1281,73.8282,-5.76,87,100,4.89,RU,1707273402
342,san patricio,28.017,-97.5169,15.47,69,66,2.61,US,1707273402
343,queenstown,-31.8976,26.8753,19.33,46,17,1.94,ZA,1707273214
344,zheshart,62.0731,49.5733,-28.37,100,90,1.73,RU,1707273402
345,mejit,10.2753,170.8646,27.03,79,100,7.84,MH,1707273402
346,el calafate,-50.3408,-72.2768,11.61,83,88,5.89,AR,1707273156
347,takoradi,4.8845,-1.7554,25.01,88,9,1.3,GH,1707273203
348,elko,41.0002,-115.5012,2.02,94,100,0.45,US,1707273402
349,pugachev,52.0133,48.8025,-9.89,79,11,9.44,RU,1707273402
350,bria,6.5423,21.9863,20.41,24,94,2.85,CF,1707273402
351,laojunmiao,39.8333,97.7333,-5.83,50,93,0.97,CN,1707273402
352,lata,40.1629,-8.3327,10.04,95,82,1.79,PT,1707273402
353,labytnangi,66.6572,66.4183,-21.75,100,100,1.52,RU,1707273403
354,lihue,21.9789,-159.3672,26.58,66,75,8.75,US,1707273324
355,ta`u,-14.2336,-169.5144,28.21,84,100,13.16,AS,1707273397
356,kolokani,13.5728,-8.0339,19.57,14,0,4.1,ML,1707273403
357,santa cruz,-17.8,-63.1667,23.7,94,40,2.57,BO,1707273403
358,swakopmund,-22.6833,14.5333,19.47,91,86,1.96,NA,1707273403
359,rawson,-43.3002,-65.1023,25.1,52,100,6.82,AR,1707273403
360,rawah,34.4816,41.9093,10.86,62,0,3.21,IQ,1707273403
361,bacabal,-4.2917,-44.7917,24.39,91,78,1.69,BR,1707273230
362,pangkalanbuun,-2.6833,111.6167,26.04,89,100,1.53,ID,1707273403
363,nova vicosa,-17.8919,-39.3719,25.67,86,100,2.34,BR,1707273289
364,sodra sandby,56.5667,16.6167,0.5,83,44,10.47,SE,1707273403
365,hasaki,35.7333,140.8333,10.16,46,83,5.34,JP,1707273404
366,opuwo,-18.0607,13.84,19.95,89,99,1.73,NA,1707273364
367,saint-joseph,-21.3667,55.6167,23.21,78,82,1.61,RE,1707273404
368,yeosu,34.7546,127.6599,4.87,46,30,2.76,KR,1707273404
369,dedougou,12.4667,-3.4667,20.97,16,92,3.64,BF,1707273404
370,madison,34.7334,-86.5667,9.86,59,0,5.36,US,1707273404
371,zag,46.9441,99.165,-24.36,78,18,1.12,MN,1707273404
372,malango,-2.9627,119.9001,27.1,69,100,0.81,ID,1707273404
373,kharp,66.8014,65.8081,-20.89,100,100,1.18,RU,1707273199
374,gamay,12.3854,125.2979,28.24,68,85,4.0,PH,1707273404
375,bani mazar,28.5036,30.8004,11.42,86,0,3.25,EG,1707273404
376,las trojes,14.0667,-85.9833,14.63,58,0,1.87,HN,1707273404
377,sabha,27.0377,14.4283,10.54,48,0,1.73,LY,1707273404
378,kanniyakumari,8.0833,77.5667,25.73,69,10,7.73,IN,1707273405
379,kuytun,54.3419,101.5036,-15.8,98,92,2.25,RU,1707273405
380,ketchikan,55.3422,-131.6461,2.26,80,100,2.06,US,1707273405
381,quepos,9.4236,-84.1652,25.71,84,12,1.9,CR,1707273195
382,aflou,34.1128,2.1023,5.51,54,0,6.8,DZ,1707273405
383,champerico,14.3,-91.9167,26.39,69,47,1.35,GT,1707273405
384,smithers,54.7804,-127.1743,-2.82,86,100,1.03,CA,1707273405
385,lamu,-2.2717,40.902,26.5,85,19,4.42,KE,1707273406
386,berdigestyakh,62.0989,126.6992,-23.27,95,100,1.97,RU,1707273406
387,santo antonio do ica,-3.1022,-67.9397,24.09,98,100,0.7,BR,1707273406
388,greymouth,-42.4667,171.2,19.99,67,56,3.18,NZ,1707273406
389,vila velha,-20.3297,-40.2925,23.86,92,0,1.34,BR,1707273362
390,puerto carreno,6.189,-67.4859,26.73,79,40,1.96,CO,1707273406
391,guiuan,11.0333,125.7247,26.95,77,95,7.01,PH,1707273259
392,mount isa,-20.7333,139.5,32.87,46,99,5.14,AU,1707273406
393,carauari,-4.8828,-66.8958,23.46,98,100,0.63,BR,1707273406
394,huatabampo,26.8333,-109.6333,18.82,64,100,2.24,MX,1707273406
395,prince rupert,54.3161,-130.3201,1.83,100,100,1.54,CA,1707273321
396,deland,29.0283,-81.3031,13.41,67,0,4.63,US,1707273406
397,willmar,45.1219,-95.0433,5.49,100,0,2.06,US,1707273273
398,maloyaroslavets,55.0146,36.4719,-15.05,100,100,1.66,RU,1707273406
399,vung tau,10.346,107.0843,27.19,77,49,5.95,VN,1707273407
400,acopiara,-6.0953,-39.4525,24.56,79,97,2.88,BR,1707273407
401,qamdo,31.1667,97.2333,-5.79,32,2,3.45,CN,1707273407
402,akjoujt,19.6969,-14.4164,21.33,9,50,5.67,MR,1707273407
403,urucui,-7.2294,-44.5561,25.97,68,100,0.9,BR,1707273407
404,mancio lima,-7.6142,-72.8958,25.04,94,0,1.03,BR,1707273407
405,demba,-5.51,22.2667,19.89,95,99,1.38,CD,1707273407
406,lompoc,34.6391,-120.4579,11.94,80,20,4.63,US,1707273407
407,mushie,-3.0167,16.9,22.81,83,96,1.33,CD,1707273407
408,la sarre,48.8002,-79.1996,-0.31,96,100,3.3,CA,1707273190
409,santiago de cao,-7.9589,-79.2392,25.07,83,19,3.6,PE,1707273407
410,colonia menno,-22.3667,-59.8167,24.04,88,100,4.92,PY,1707273408
411,villa regina,-39.1,-67.0667,28.93,34,49,8.93,AR,1707273408
412,bac lieu,9.285,105.7244,28.69,68,100,5.33,VN,1707273408
413,alwar,27.5667,76.6,12.87,38,91,1.41,IN,1707273408
414,ternate,0.8,127.4,27.79,74,100,3.64,ID,1707273408
415,pangkalpinang,-2.1333,106.1333,28.86,69,100,2.76,ID,1707273408
416,constantia,44.1833,28.65,10.39,66,99,5.24,RO,1707273245
417,aleksandrovsk-sakhalinskiy,50.8975,142.1561,-13.02,84,73,1.97,RU,1707273201
418,garachico,28.7781,-17.7646,17.06,27,0,2.06,ES,1707273408
419,sanaa,15.3547,44.2067,12.91,63,13,1.05,YE,1707273408
420,raduzhny,62.0961,77.475,-2.63,95,100,4.88,RU,1707273409
421,poltar,48.4309,19.7941,6.43,76,32,5.29,SK,1707273409
422,bandon,51.7469,-8.7425,4.77,90,100,2.36,IE,1707273409
423,banda aceh,5.5577,95.3222,28.58,67,5,3.76,ID,1707273409
424,sittwe,20.15,92.9,24.47,57,0,4.2,MM,1707273409
425,santa elena de uairen,4.6167,-61.1333,21.17,81,28,1.03,VE,1707273409
426,porto novo,6.4965,2.6036,23.58,66,34,1.62,BJ,1707273409
427,coahuayana de hidalgo,18.7,-103.6583,23.7,84,42,0.62,MX,1707273409
428,eyl,7.9803,49.8164,23.06,82,12,5.92,SO,1707273409
429,muisne,0.6,-80.0333,26.08,89,77,0.59,EC,1707273409
430,atchison,39.563,-95.1216,9.99,68,100,4.51,US,1707273410
431,shache,38.4167,77.2406,-2.94,74,82,1.32,CN,1707273410
432,galveston,29.3669,-94.9669,15.06,77,0,2.06,US,1707273366
433,bodaybo,57.8506,114.1933,-9.64,92,100,2.05,RU,1707273410
434,rangpur,25.75,89.25,17.77,54,0,4.19,BD,1707273410
435,hithadhoo,-0.6,73.0833,28.32,74,34,3.0,MV,1707273410
436,terenozek,45.05,64.9833,-0.32,85,78,9.19,KZ,1707273410
437,siwa oasis,29.2041,25.5195,12.63,63,0,2.54,EG,1707273410
438,fort-shevchenko,44.5086,50.263,2.13,86,100,12.48,KZ,1707273410
439,chaoyang,41.5703,120.4586,-2.75,31,0,1.33,CN,1707273411
440,myshkin,57.7897,38.4545,-26.06,100,100,1.67,RU,1707273411
441,rocha,-34.4833,-54.3333,18.6,86,6,3.65,UY,1707273411
442,winburg,-28.518,27.0093,16.36,23,41,0.76,ZA,1707273411
443,elizabeth city,36.2946,-76.2511,5.01,69,75,9.26,US,1707273411
444,mumford,5.2618,-0.759,24.99,87,5,1.19,GH,1707273411
445,red lion,39.9009,-76.6058,1.14,67,0,0.99,US,1707273411
446,yeraliyev,43.2,51.65,3.43,86,100,9.96,KZ,1707273411
447,ajaccio,42.0,8.9167,8.03,88,75,4.12,FR,1707273411
448,happy valley-goose bay,53.3168,-60.3315,-17.83,78,20,2.06,CA,1707273412
449,upata,8.0086,-62.3989,26.77,71,8,2.47,VE,1707273412
450,penzance,50.1186,-5.5371,14.31,97,100,11.08,GB,1707273214
451,pacasmayo,-7.4006,-79.5714,25.05,77,54,4.74,PE,1707273210
452,benjamin constant,-4.3831,-70.0311,24.07,98,100,0.95,BR,1707273412
453,ekero,0.3253,34.5044,16.9,59,1,2.56,KE,1707273412
454,le port,-20.9373,55.2919,25.98,75,49,2.23,RE,1707273412
455,vrangel',42.7297,133.0839,-4.19,44,0,4.63,RU,1707273412
456,pionerskiy,54.9508,20.2275,6.75,84,100,14.79,RU,1707273412
457,kolonia,50.9333,6.95,11.65,82,100,6.69,DE,1707273380
458,sakakah,29.9697,40.2064,6.76,66,5,1.18,SA,1707273412
459,argo,37.6333,22.7333,11.55,53,5,2.58,GR,1707273412
460,fale old settlement,-9.3852,-171.2468,28.73,81,100,10.73,TK,1707273412
461,namsos,64.4662,11.4957,-7.97,85,15,6.17,NO,1707273413
462,nar'yan-mar,67.6713,53.087,-24.94,97,99,1.79,RU,1707273413
463,manadhoo,5.7667,73.3833,27.96,71,33,7.44,MV,1707273413
464,jamaame,0.0697,42.745,26.2,87,96,4.68,SO,1707273413
465,atar,20.5169,-13.0499,19.74,10,7,5.0,MR,1707273413
466,yasnyy,51.0333,59.8742,-7.22,85,100,11.11,RU,1707273413
467,bhamo,24.2667,97.2333,17.26,85,95,0.71,MM,1707273413
468,arraial do cabo,-22.9661,-42.0278,25.32,88,100,1.18,BR,1707273413
469,sandnessjoen,66.0217,12.6316,-15.71,96,100,6.98,NO,1707273413
470,chibougamau,49.9168,-74.3659,-4.21,74,75,3.09,CA,1707273413
471,koryazhma,61.3143,47.1691,-27.83,100,85,1.02,RU,1707273414
472,khandyga,62.6667,135.6,-32.41,94,100,0.68,RU,1707273414
473,rio grande,-32.035,-52.0986,21.17,83,30,4.84,BR,1707273414
474,nanguneri,8.4933,77.6581,25.56,71,10,4.65,IN,1707273414
475,veracruz,19.3333,-96.6667,14.33,90,10,1.01,MX,1707273254
476,khada,27.1833,83.8833,13.32,55,54,3.69,IN,1707273414
477,freeport,40.6576,-73.5832,3.47,68,0,3.09,US,1707273351
478,paradip garh,20.3167,86.6167,24.38,80,4,4.29,IN,1707273414
479,leh,34.1667,77.5833,-21.45,85,73,1.19,IN,1707273414
480,coquimbo,-29.9533,-71.3436,18.85,94,0,2.06,CL,1707273296
481,kaiapoi,-43.3783,172.6401,24.28,56,52,7.72,NZ,1707273415
482,monrovia,6.3005,-10.7969,26.53,85,4,1.04,LR,1707273415
483,sarangani,5.4033,125.4636,27.34,75,100,4.23,PH,1707273415
484,kalmunai,7.4167,81.8167,27.2,65,66,2.94,LK,1707273414
485,villa gesell,-37.2639,-56.973,21.7,92,99,6.51,AR,1707273416
486,rhar el melah,37.1694,10.1906,11.82,71,100,5.67,TN,1707273416
487,nantucket,41.2835,-70.0995,1.1,86,40,7.72,US,1707273234
488,wanning,18.8003,110.3967,25.02,78,97,3.56,CN,1707273416
489,zhanaozen,43.3,52.8,0.33,97,100,8.52,KZ,1707273416
490,encruzilhada do sul,-30.5439,-52.5219,17.78,98,73,1.75,BR,1707273416
491,dakhla,23.6848,-15.958,20.1,39,67,4.67,EH,1707273416
492,broken hill,-31.95,141.4333,25.77,22,63,8.37,AU,1707273416
493,eaglehawk,-36.7333,144.25,24.65,29,0,4.65,AU,1707273416
494,noosa heads,-26.3833,153.15,28.95,76,28,6.55,AU,1707273157
495,mar del plata,-38.0023,-57.5575,22.01,91,0,11.18,AR,1707273171
496,kapa'a,22.0752,-159.319,26.99,66,75,8.75,US,1707273416
497,naters,46.3254,7.9891,4.97,77,23,2.38,CH,1707273416
498,demopolis,32.5176,-87.8364,8.97,71,0,0.0,US,1707273416
499,jati,24.3539,68.2671,20.93,75,100,3.46,PK,1707273416
500,saint-pierre,-21.3393,55.4781,23.82,60,20,2.57,RE,1707273416
501,plastun,44.7561,136.2939,-5.22,43,0,3.08,RU,1707273417
502,axim,4.8699,-2.2405,24.81,86,8,1.75,GH,1707273417
503,mapastepec,15.4333,-92.9,22.33,44,0,2.85,MX,1707273417
504,oum hadjer,13.2954,19.6966,18.42,23,99,4.33,TD,1707273417
505,murzuq,25.9155,13.9184,10.02,50,54,2.71,LY,1707273417
506,charters towers,-20.1,146.2667,34.4,38,27,3.7,AU,1707273417
507,vadso,70.0744,29.7487,-10.91,85,100,8.23,NO,1707273417
508,mount pearl,47.5166,-52.7813,-0.38,93,100,12.35,CA,1707273306
509,corner brook,48.9667,-57.9484,-3.91,98,64,0.17,CA,1707273365
510,firuzabad,28.8438,52.5707,3.54,62,0,2.24,IR,1707273417
511,cill airne,52.05,-9.5167,3.95,91,100,1.56,IE,1707273417
512,waingapu,-9.6567,120.2641,30.81,63,26,2.15,ID,1707273417
513,gizo,-8.103,156.8419,29.35,76,62,6.77,SB,1707273418
514,katsuura,35.1333,140.3,8.64,53,100,4.41,JP,1707273378
515,smirnovo,54.5125,69.4222,-6.99,87,100,8.23,KZ,1707273419
516,acarau,-2.8856,-40.12,26.88,85,21,5.96,BR,1707273396
517,totness,5.8833,-56.3167,24.77,93,12,3.19,SR,1707273419
518,brcko,44.8728,18.8083,0.9,80,100,1.97,BA,1707273419
519,grangwav,18.4289,-72.7706,23.97,78,50,2.35,HT,1707273419
520,shitanjing,39.2342,106.3439,-6.91,56,100,0.77,CN,1707273419
521,erdenet,49.0333,104.0833,-15.98,82,78,1.28,MN,1707273419
522,yaren,-0.5472,166.916,29.12,74,100,7.04,NR,1707273419
523,dolores,-36.3132,-57.6792,21.11,94,100,4.35,AR,1707273365
524,berea,41.3662,-81.8543,0.49,88,0,2.06,US,1707273419
525,moose jaw,50.4001,-105.5344,-0.86,93,100,4.63,CA,1707273419
526,erenhot,43.6475,111.9767,-14.23,88,30,2.6,CN,1707273419
527,mahanje,-9.9333,35.3333,16.85,93,100,1.28,TZ,1707273420
528,araguaina,-7.1911,-48.2072,23.92,86,86,1.46,BR,1707273313
529,bom jesus,-9.0744,-44.3586,24.05,70,75,0.64,BR,1707273420
530,dahlonega,34.5326,-83.9849,8.79,63,2,1.74,US,1707273420
531,sangueya,10.7,-14.3667,22.02,91,0,0.77,GN,1707273420
532,mil'kovo,55.6078,37.7956,-7.78,100,97,0.85,RU,1707273420
533,gornopravdinsk,60.05,69.9,-1.75,92,100,4.84,RU,1707273420
534,galle,6.0367,80.217,26.01,76,48,3.1,LK,1707273420
535,tucuma,-0.1833,-50.05,25.16,93,92,2.27,BR,1707273420
536,hong kong,22.2855,114.1577,19.97,93,100,5.36,HK,1707273231
537,neelankarai,12.9455,80.2575,23.03,88,40,1.54,IN,1707273420
538,flying fish cove,-10.4217,105.6791,27.82,83,100,2.57,CX,1707273419
539,bikenibeu village,1.3673,173.1241,30.98,79,75,4.12,KI,1707273420
540,ambalangoda,6.2355,80.0538,26.99,80,50,3.15,LK,1707273421
541,lundazi,-12.2929,33.1782,17.13,96,99,2.04,ZM,1707273421
542,chambas,22.1928,-78.9136,19.46,62,51,7.18,CU,1707273421
543,usogorsk,63.4106,48.6872,-28.52,100,99,1.12,RU,1707273421
544,tobruk,32.0836,23.9764,14.09,75,0,4.71,LY,1707273421
545,princeville,45.7668,-61.2985,-0.76,92,100,1.54,CA,1707273421
546,guayaramerin,-10.8368,-65.3614,23.14,97,35,0.27,BO,1707273421
547,betio village,1.358,172.9211,31.02,78,31,6.61,KI,1707273421
548,gafanha da nazare,40.6362,-8.7134,11.12,93,95,4.7,PT,1707273422
549,kolonia town,6.964,158.206,31.06,66,100,5.14,FM,1707273422
550,codrington,-38.2667,141.9667,20.01,53,52,5.47,AU,1707273393
551,acapulco de juarez,16.8634,-99.8901,26.9,69,75,2.57,MX,1707273422
552,tandil,-37.3217,-59.1332,20.72,86,40,3.08,AR,1707273422
553,millau,44.0833,2.9167,7.23,97,89,1.46,FR,1707273422
554,pecos,31.4229,-103.4932,14.61,39,100,11.95,US,1707273422
555,durango,24.8333,-104.8333,15.57,15,95,3.81,MX,1707273245
556,el quebrachal,-25.2833,-64.0667,24.66,72,42,0.57,AR,1707273422
557,purranque,-40.9167,-73.1667,18.63,98,100,1.24,CL,1707273423
558,balabac,7.9868,117.0645,28.08,73,11,4.74,PH,1707273423
559,briancon,44.9,6.65,3.53,79,92,1.94,FR,1707273423
560,alta,69.9689,23.2717,-13.41,85,100,1.03,NO,1707273423
561,aripuana,-9.1667,-60.6333,23.81,82,46,1.04,BR,1707273423
562,semirom,31.4167,51.5667,-4.81,94,43,1.64,IR,1707273424
